{
"type": "FeatureCollection",
"name": "CIS",
"crs": { "type": "name", "properties": { "name": "urn:ogc:def:crs:OGC:1.3:CRS84" } },
"features": [
{ "type": "Feature", "properties": { "nom": "MACLAS" }, "geometry": { "type": "Point", "coordinates": [ 4.691694241563348, 45.367418706926813 ] } },
{ "type": "Feature", "properties": { "nom": "MONTBRISON" }, "geometry": { "type": "Point", "coordinates": [ 4.06796972010198, 45.613132365718073 ] } },
{ "type": "Feature", "properties": { "nom": "CUINZIER" }, "geometry": { "type": "Point", "coordinates": [ 4.258107520579734, 46.12889404645766 ] } },
{ "type": "Feature", "properties": { "nom": "BELMONT DE LA LOIRE" }, "geometry": { "type": "Point", "coordinates": [ 4.347403107843992, 46.165901014408909 ] } },
{ "type": "Feature", "properties": { "nom": "FEURS" }, "geometry": { "type": "Point", "coordinates": [ 4.219896235833414, 45.737019247411872 ] } },
{ "type": "Feature", "properties": { "nom": "CHARLIEU" }, "geometry": { "type": "Point", "coordinates": [ 4.172534397761217, 46.166086259968409 ] } },
{ "type": "Feature", "properties": { "nom": "NEULISE" }, "geometry": { "type": "Point", "coordinates": [ 4.179892266676646, 45.887231866591037 ] } },
{ "type": "Feature", "properties": { "nom": "ROANNE" }, "geometry": { "type": "Point", "coordinates": [ 4.085894411275359, 46.04111763638462 ] } },
{ "type": "Feature", "properties": { "nom": "LE CERGNE" }, "geometry": { "type": "Point", "coordinates": [ 4.30592165382046, 46.120395819359537 ] } },
{ "type": "Feature", "properties": { "nom": "CREMEAUX" }, "geometry": { "type": "Point", "coordinates": [ 3.92530809236484, 45.907371317012377 ] } },
{ "type": "Feature", "properties": { "nom": "RIVE DE GIER" }, "geometry": { "type": "Point", "coordinates": [ 4.597912281454761, 45.522344763598966 ] } },
{ "type": "Feature", "properties": { "nom": "DOIZIEUX" }, "geometry": { "type": "Point", "coordinates": [ 4.587221962635315, 45.4267204183706 ] } },
{ "type": "Feature", "properties": { "nom": "PANISSIERES" }, "geometry": { "type": "Point", "coordinates": [ 4.34100552098629, 45.789047152252003 ] } },
{ "type": "Feature", "properties": { "nom": "RENAISON" }, "geometry": { "type": "Point", "coordinates": [ 3.931907336575794, 46.054245205616326 ] } },
{ "type": "Feature", "properties": { "nom": "CORDELLE" }, "geometry": { "type": "Point", "coordinates": [ 4.060856957792044, 45.946041207374883 ] } },
{ "type": "Feature", "properties": { "nom": "CHALMAZEL" }, "geometry": { "type": "Point", "coordinates": [ 3.851175012543741, 45.705673850452058 ] } },
{ "type": "Feature", "properties": { "nom": "BALBIGNY" }, "geometry": { "type": "Point", "coordinates": [ 4.188714615603347, 45.818003210276053 ] } },
{ "type": "Feature", "properties": { "nom": "LA RICAMARIE" }, "geometry": { "type": "Point", "coordinates": [ 4.361992779847364, 45.405892425510523 ] } },
{ "type": "Feature", "properties": { "nom": "SAINT HEAND" }, "geometry": { "type": "Point", "coordinates": [ 4.377154772256596, 45.536317697709272 ] } },
{ "type": "Feature", "properties": { "nom": "PELUSSIN" }, "geometry": { "type": "Point", "coordinates": [ 4.675125969876802, 45.419353826557774 ] } },
{ "type": "Feature", "properties": { "nom": "FIRMINY" }, "geometry": { "type": "Point", "coordinates": [ 4.289101915316079, 45.378313716868874 ] } },
{ "type": "Feature", "properties": { "nom": "BUSSIERES" }, "geometry": { "type": "Point", "coordinates": [ 4.272179516001881, 45.835498721848396 ] } },
{ "type": "Feature", "properties": { "nom": "GRAMMOND" }, "geometry": { "type": "Point", "coordinates": [ 4.441610064464597, 45.564268143312702 ] } },
{ "type": "Feature", "properties": { "nom": "JONZIEUX" }, "geometry": { "type": "Point", "coordinates": [ 4.361644028559646, 45.308816348715808 ] } },
{ "type": "Feature", "properties": { "nom": "MONTROND LES BAINS" }, "geometry": { "type": "Point", "coordinates": [ 4.233965828601558, 45.650344674003499 ] } },
{ "type": "Feature", "properties": { "nom": "MONTAGNY" }, "geometry": { "type": "Point", "coordinates": [ 4.229608872929787, 46.032251937037195 ] } },
{ "type": "Feature", "properties": { "nom": "USSON EN FOREZ" }, "geometry": { "type": "Point", "coordinates": [ 3.941830670138562, 45.3880206957609 ] } },
{ "type": "Feature", "properties": { "nom": "SAINT MARTIN LA SAUVETE" }, "geometry": { "type": "Point", "coordinates": [ 3.925513739631879, 45.831357298513332 ] } },
{ "type": "Feature", "properties": { "nom": "CHAZELLES SUR LYON" }, "geometry": { "type": "Point", "coordinates": [ 4.378425330960055, 45.635561760143716 ] } },
{ "type": "Feature", "properties": { "nom": "PERIGNEUX" }, "geometry": { "type": "Point", "coordinates": [ 4.155351130657879, 45.438906671923064 ] } },
{ "type": "Feature", "properties": { "nom": "SAINT DENIS DE CABANNE" }, "geometry": { "type": "Point", "coordinates": [ 4.208981679893697, 46.174778968958968 ] } },
{ "type": "Feature", "properties": { "nom": "LE CHAMBON FEUGEROLLES" }, "geometry": { "type": "Point", "coordinates": [ 4.326996855996364, 45.398497051837872 ] } },
{ "type": "Feature", "properties": { "nom": "SAINT JEAN SOLEYMIEUX" }, "geometry": { "type": "Point", "coordinates": [ 4.040935003340014, 45.50112706177962 ] } },
{ "type": "Feature", "properties": { "nom": "SAINT CYR DE VALORGES" }, "geometry": { "type": "Point", "coordinates": [ 4.306790458295112, 45.892749199913304 ] } },
{ "type": "Feature", "properties": { "nom": "REGNY" }, "geometry": { "type": "Point", "coordinates": [ 4.218724599253972, 45.992494182405075 ] } },
{ "type": "Feature", "properties": { "nom": "SAINT SYMPHORIEN DE LAY" }, "geometry": { "type": "Point", "coordinates": [ 4.216886439031541, 45.946796718588644 ] } },
{ "type": "Feature", "properties": { "nom": "SAINT JUST EN CHEVALET" }, "geometry": { "type": "Point", "coordinates": [ 3.843216526150281, 45.909814185624661 ] } },
{ "type": "Feature", "properties": { "nom": "SAIL SOUS COUZAN" }, "geometry": { "type": "Point", "coordinates": [ 3.972177606344318, 45.734642186566525 ] } },
{ "type": "Feature", "properties": { "nom": "ROZIER EN DONZY" }, "geometry": { "type": "Point", "coordinates": [ 4.275875442138412, 45.795235328050509 ] } },
{ "type": "Feature", "properties": { "nom": "NOIRETABLE" }, "geometry": { "type": "Point", "coordinates": [ 3.763430517129503, 45.816633065712196 ] } },
{ "type": "Feature", "properties": { "nom": "SAINT GERMAIN LAVAL" }, "geometry": { "type": "Point", "coordinates": [ 4.015383304185011, 45.830235463358648 ] } },
{ "type": "Feature", "properties": { "nom": "SAINT PIERRE DE BOEUF" }, "geometry": { "type": "Point", "coordinates": [ 4.748738386975032, 45.386478931840145 ] } },
{ "type": "Feature", "properties": { "nom": "SAINT JUST LA PENDUE" }, "geometry": { "type": "Point", "coordinates": [ 4.244449113166795, 45.894398942135695 ] } },
{ "type": "Feature", "properties": { "nom": "LA PACAUDIERE" }, "geometry": { "type": "Point", "coordinates": [ 3.869771705397888, 46.176590866786526 ] } },
{ "type": "Feature", "properties": { "nom": "SAINT ALBAN LES EAUX" }, "geometry": { "type": "Point", "coordinates": [ 3.942674686712721, 46.017492976332285 ] } },
{ "type": "Feature", "properties": { "nom": "CHAVANAY" }, "geometry": { "type": "Point", "coordinates": [ 4.736887605715574, 45.411830290053103 ] } },
{ "type": "Feature", "properties": { "nom": "SAINT GEORGES EN COUZAN" }, "geometry": { "type": "Point", "coordinates": [ 3.931644470985126, 45.706710561630345 ] } },
{ "type": "Feature", "properties": { "nom": "VALLEE DU GIER" }, "geometry": { "type": "Point", "coordinates": [ 4.567217697958282, 45.501935236095292 ] } },
{ "type": "Feature", "properties": { "nom": "SAINT JEAN BONNEFONDS" }, "geometry": { "type": "Point", "coordinates": [ 4.440912419566891, 45.443121562481295 ] } },
{ "type": "Feature", "properties": { "nom": "SAINT ROMAIN LE PUY" }, "geometry": { "type": "Point", "coordinates": [ 4.126270575158102, 45.55305181915363 ] } },
{ "type": "Feature", "properties": { "nom": "SAINT MARTIN LESTRA" }, "geometry": { "type": "Point", "coordinates": [ 4.356306294378078, 45.721110044986737 ] } },
{ "type": "Feature", "properties": { "nom": "LA TERRASSE SUR DORLAY" }, "geometry": { "type": "Point", "coordinates": [ 4.583602655062744, 45.448565376785233 ] } },
{ "type": "Feature", "properties": { "nom": "SURY LE COMTAL" }, "geometry": { "type": "Point", "coordinates": [ 4.181173979115126, 45.542354396261672 ] } },
{ "type": "Feature", "properties": { "nom": "BOEN SUR LIGNON" }, "geometry": { "type": "Point", "coordinates": [ 4.001175236404456, 45.744867890302679 ] } },
{ "type": "Feature", "properties": { "nom": "SAINT SAUVEUR EN RUE" }, "geometry": { "type": "Point", "coordinates": [ 4.492682553785734, 45.265562685684721 ] } },
{ "type": "Feature", "properties": { "nom": "SAINT CHAMOND" }, "geometry": { "type": "Point", "coordinates": [ 4.503499336980181, 45.474408036641421 ] } },
{ "type": "Feature", "properties": { "nom": "ANDREZIEUX BOUTHEON" }, "geometry": { "type": "Point", "coordinates": [ 4.257339962564428, 45.521154601552496 ] } },
{ "type": "Feature", "properties": { "nom": "SAINT GALMIER" }, "geometry": { "type": "Point", "coordinates": [ 4.314500907634831, 45.583680231677363 ] } },
{ "type": "Feature", "properties": { "nom": "SAINT GENEST MALIFAUX" }, "geometry": { "type": "Point", "coordinates": [ 4.41810280048334, 45.341105895920812 ] } },
{ "type": "Feature", "properties": { "nom": "BOURG ARGENTAL" }, "geometry": { "type": "Point", "coordinates": [ 4.57285391588112, 45.298986245568294 ] } },
{ "type": "Feature", "properties": { "nom": "SAINT JULIEN MOLIN MOLETTE" }, "geometry": { "type": "Point", "coordinates": [ 4.617560734892816, 45.319121104953204 ] } },
{ "type": "Feature", "properties": { "nom": "SAINT MAURICE EN GOURGOIS" }, "geometry": { "type": "Point", "coordinates": [ 4.188696277086054, 45.403916413612357 ] } },
{ "type": "Feature", "properties": { "nom": "SAINT CHRISTO EN JAREZ" }, "geometry": { "type": "Point", "coordinates": [ 4.485716308014894, 45.545291089742477 ] } },
{ "type": "Feature", "properties": { "nom": "SAINT JUST SAINT RAMBERT" }, "geometry": { "type": "Point", "coordinates": [ 4.236573697363384, 45.510300908361394 ] } },
{ "type": "Feature", "properties": { "nom": "MARLHES SAINT REGIS" }, "geometry": { "type": "Point", "coordinates": [ 4.400501599515413, 45.285034697654666 ] } },
{ "type": "Feature", "properties": { "nom": "LE BERLAND ROCHE" }, "geometry": { "type": "Point", "coordinates": [ 4.305047099961762, 45.433424033939737 ] } },
{ "type": "Feature", "properties": { "nom": "SAINT ETIENNE LA TERRASSE" }, "geometry": { "type": "Point", "coordinates": [ 4.387720253350706, 45.468044127865582 ] } },
{ "type": "Feature", "properties": { "nom": "SAINT BONNET SAINT NIZIER" }, "geometry": { "type": "Point", "coordinates": [ 4.064431073890058, 45.430633502752656 ] } },
{ "type": "Feature", "properties": { "nom": "SAINT ETIENNE LA METARE" }, "geometry": { "type": "Point", "coordinates": [ 4.413963083729863, 45.425716358029767 ] } },
{ "type": "Feature", "properties": { "nom": "SAINT ETIENNE SEVERINE" }, "geometry": { "type": "Point", "coordinates": [ 4.37190334132376, 45.434679953475197 ] } },
{ "type": "Feature", "properties": { "nom": "SAINT MARTIN LA PLAINE" }, "geometry": { "type": "Point", "coordinates": [ 4.590386160781062, 45.547796788947053 ] } },
{ "type": "Feature", "properties": { "nom": "VIOLAY" }, "geometry": { "type": "Point", "coordinates": [ 4.356479636906948, 45.852148247474858 ] } },
{ "type": "Feature", "properties": { "nom": "POUILLY SOUS CHARLIEU" }, "geometry": { "type": "Point", "coordinates": [ 4.108495617814068, 46.144528716131589 ] } }
]
}
